[
  {
    "name": "Conservatorio del Tolima",
    "lat": 4.43962,
    "lng": -75.20298,
    "barrio": "Centro Musical",
    "tags": "cultura,musica,educacion",
    "base_duration": 45,
    "price_level": 1,
    "rating": 4.8,
    "address": "Carrera 3 # 9-02, Ibagué, Tolima",
    "verified": 1,
    "verification_source": "manual",
    "business_type": "educational_institution,cultural_center",
    "description": "Institución educativa superior especializada en música",
    "phone": "+57 8 2610952"
  },
  {
    "name": "Teatro Tolima",
    "lat": 4.43884,
    "lng": -75.20396,
    "barrio": "Centro Cultural",
    "tags": "cultura,teatro,espectaculos",
    "base_duration": 90,
    "price_level": 2,
    "rating": 4.7,
    "address": "Carrera 3 # 7-59, Ibagué, Tolima",
    "verified": 1,
    "verification_source": "manual",
    "business_type": "theater,cultural_venue",
    "description": "Principal teatro de la ciudad, sede de eventos culturales",
    "phone": "+57 8 2614187"
  },
  {
    "name": "Plaza de Bolívar",
    "lat": 4.43991,
    "lng": -75.20497,
    "barrio": "Centro",
    "tags": "cultura,historia,plaza,turismo",
    "base_duration": 30,
    "price_level": 1,
    "rating": 4.6,
    "address": "Plaza de Bolívar, Centro, Ibagué, Tolima",
    "verified": 1,
    "verification_source": "manual",
    "business_type": "plaza,tourist_attraction",
    "description": "Plaza principal de Ibagué, corazón histórico de la ciudad"
  },
  {
    "name": "Catedral Primada",
    "lat": 4.44012,
    "lng": -75.20515,
    "barrio": "Centro",
    "tags": "religion,historia,arquitectura,turismo",
    "base_duration": 30,
    "price_level": 1,
    "rating": 4.5,
    "address": "Calle 9 # 3-07, Centro, Ibagué, Tolima",
    "verified": 1,
    "verification_source": "manual",
    "business_type": "church,tourist_attraction",
    "description": "Catedral principal de Ibagué, importante patrimonio arquitectónico"
  },
  {
    "name": "Museo de Arte del Tolima",
    "lat": 4.44015,
    "lng": -75.20398,
    "barrio": "Centro",
    "tags": "cultura,arte,museo,historia",
    "base_duration": 60,
    "price_level": 1,
    "rating": 4.4,
    "address": "Carrera 3 # 9-24, Centro, Ibagué, Tolima",
    "verified": 1,
    "verification_source": "manual",
    "business_type": "museum,cultural_center",
    "description": "Principal museo de arte de la región tolimense",
    "phone": "+57 8 2610285"
  },
  {
    "name": "Parque Centenario",
    "lat": 4.44156,
    "lng": -75.20612,
    "barrio": "Centro",
    "tags": "parque,recreacion,familias,ejercicio",
    "base_duration": 45,
    "price_level": 1,
    "rating": 4.3,
    "address": "Carrera 2 con Calle 10, Centro, Ibagué, Tolima",
    "verified": 1,
    "verification_source": "manual",
    "business_type": "park,recreation",
    "description": "Parque urbano ideal para caminatas y actividades familiares"
  },
  {
    "name": "Jardín Botánico San Jorge",
    "lat": 4.4245,
    "lng": -75.1862,
    "barrio": "San Jorge",
    "tags": "naturaleza,botanica,educacion,turismo",
    "base_duration": 90,
    "price_level": 1,
    "rating": 4.7,
    "address": "Carrera 15 # 60-00, San Jorge, Ibagué, Tolima",
    "verified": 1,
    "verification_source": "manual",
    "business_type": "botanical_garden,tourist_attraction",
    "description": "Jardín botánico con especies nativas del Tolima",
    "phone": "+57 8 2709999"
  },
  {
    "name": "Panóptico de Ibagué",
    "lat": 4.44087,
    "lng": -75.20234,
    "barrio": "Centro",
    "tags": "historia,museo,arquitectura,turismo",
    "base_duration": 45,
    "price_level": 1,
    "rating": 4.2,
    "address": "Calle 8 # 4-02, Centro, Ibagué, Tolima",
    "verified": 1,
    "verification_source": "manual",
    "business_type": "museum,historical_site",
    "description": "Antigua cárcel convertida en museo histórico"
  },
  {
    "name": "Centro Comercial La Estación",
    "lat": 4.4389,
    "lng": -75.1987,
    "barrio": "Centro",
    "tags": "shopping,comercio,restaurantes,cine",
    "base_duration": 120,
    "price_level": 3,
    "rating": 4.1,
    "address": "Carrera 1 # 9-82, Centro, Ibagué, Tolima",
    "verified": 1,
    "verification_source": "manual",
    "business_type": "shopping_mall,restaurant",
    "description": "Centro comercial ubicado en la antigua estación del tren"
  },
  {
    "name": "Mercado Tradicional La 21",
    "lat": 4.4456,
    "lng": -75.2089,
    "barrio": "La Pola",
    "tags": "mercado,comida,local,tradicional",
    "base_duration": 60,
    "price_level": 1,
    "rating": 4.0,
    "address": "Carrera 21, La Pola, Ibagué, Tolima",
    "verified": 1,
    "verification_source": "manual",
    "business_type": "market,food",
    "description": "Mercado tradicional con productos locales y comida típica"
  },
  {
    "name": "Universidad del Tolima",
    "lat": 4.4167,
    "lng": -75.1833,
    "barrio": "Barrio Santa Helena del Opón",
    "tags": "educacion,universidad,campus,cultura",
    "base_duration": 60,
    "price_level": 1,
    "rating": 4.3,
    "address": "Barrio Santa Helena del Opón, Ibagué, Tolima",
    "verified": 1,
    "verification_source": "manual",
    "business_type": "university,educational_institution",
    "description": "Principal universidad pública del departamento del Tolima"
  },
  {
    "name": "Estadio Manuel Murillo Toro",
    "lat": 4.4445,
    "lng": -75.1945,
    "barrio": "Modelia",
    "tags": "deportes,futbol,estadio,eventos",
    "base_duration": 120,
    "price_level": 2,
    "rating": 4.2,
    "address": "Carrera 5 # 46-25, Modelia, Ibagué, Tolima",
    "verified": 1,
    "verification_source": "manual",
    "business_type": "stadium,sports_venue",
    "description": "Estadio principal de fútbol de Ibagué, sede del Deportes Tolima"
  },
  {
    "name": "Mirador Cerro de San Javier",
    "lat": 4.4589,
    "lng": -75.2278,
    "barrio": "San Javier",
    "tags": "mirador,naturaleza,vista,turismo",
    "base_duration": 120,
    "price_level": 1,
    "rating": 4.6,
    "address": "Cerro de San Javier, Ibagué, Tolima",
    "verified": 1,
    "verification_source": "manual",
    "business_type": "viewpoint,tourist_attraction",
    "description": "Mirador natural con vista panorámica de Ibagué"
  },
  {
    "name": "Terminal de Transportes",
    "lat": 4.4298,
    "lng": -75.1734,
    "barrio": "Terminal",
    "tags": "transporte,terminal,servicios",
    "base_duration": 30,
    "price_level": 2,
    "rating": 3.8,
    "address": "Carrera 11 # 50-00, Terminal, Ibagué, Tolima",
    "verified": 1,
    "verification_source": "manual",
    "business_type": "transport_hub,terminal",
    "description": "Terminal de transportes intermunicipal de Ibagué"
  },
  {
    "name": "Café San Jorge",
    "lat": 4.4387,
    "lng": -75.2021,
    "barrio": "Centro",
    "tags": "cafe,bebidas,desayuno,local",
    "base_duration": 45,
    "price_level": 2,
    "rating": 4.5,
    "address": "Carrera 3 # 8-45, Centro, Ibagué, Tolima",
    "verified": 1,
    "verification_source": "manual",
    "business_type": "cafe,restaurant",
    "description": "Café tradicional en el centro histórico de Ibagué"
  },
  {
    "name": "Restaurante El Tolimense",
    "lat": 4.4412,
    "lng": -75.2034,
    "barrio": "Centro",
    "tags": "restaurante,comida,regional,tamales",
    "base_duration": 60,
    "price_level": 2,
    "rating": 4.3,
    "address": "Calle 10 # 3-78, Centro, Ibagué, Tolima",
    "verified": 1,
    "verification_source": "manual",
    "business_type": "restaurant,local_cuisine",
    "description": "Restaurante especializado en comida típica tolimense"
  },
  {
    "name": "Hotel Dann Tolima",
    "lat": 4.4367,
    "lng": -75.2012,
    "barrio": "Centro",
    "tags": "hotel,hospedaje,centro,negocios",
    "base_duration": 60,
    "price_level": 3,
    "rating": 4.2,
    "address": "Carrera 2 # 7-19, Centro, Ibagué, Tolima",
    "verified": 1,
    "verification_source": "manual",
    "business_type": "hotel,accommodation",
    "description": "Hotel céntrico de categoría superior"
  },
  {
    "name": "Biblioteca Darío Echandía",
    "lat": 4.4423,
    "lng": -75.2067,
    "barrio": "Centro",
    "tags": "biblioteca,cultura,educacion,lectura",
    "base_duration": 90,
    "price_level": 1,
    "rating": 4.4,
    "address": "Calle 11 # 2-23, Centro, Ibagué, Tolima",
    "verified": 1,
    "verification_source": "manual",
    "business_type": "library,cultural_center",
    "description": "Biblioteca departamental con amplia colección y eventos culturales"
  },
  {
    "name": "Casa de la Cultura",
    "lat": 4.4398,
    "lng": -75.2045,
    "barrio": "Centro",
    "tags": "cultura,arte,talleres,eventos",
    "base_duration": 60,
    "price_level": 1,
    "rating": 4.3,
    "address": "Calle 9 # 2-61, Centro, Ibagué, Tolima",
    "verified": 1,
    "verification_source": "manual",
    "business_type": "cultural_center,event_venue",
    "description": "Centro cultural con talleres, exposiciones y eventos artísticos"
  },
  {
    "name": "Parque Deportivo",
    "lat": 4.4567,
    "lng": -75.1923,
    "barrio": "Ambalá",
    "tags": "parque,deportes,ejercicio,recreacion",
    "base_duration": 90,
    "price_level": 1,
    "rating": 4.1,
    "address": "Carrera 8 # 45-00, Ambalá, Ibagué, Tolima",
    "verified": 1,
    "verification_source": "manual",
    "business_type": "sports_complex,park",
    "description": "Complejo deportivo con canchas y espacios para ejercicio"
  }
]